[{"place23nm": "A' Chill", "lat": 57.057619, "long": -6.500801}, {"place23nm": "A' Chr\u00econ L\u00e0raich", "lat": 56.392629, "long": -4.615894}, {"place23nm": "A' Glas Pheighinn", "lat": 57.453493, "long": -6.702777}, {"place23nm": "A' Mhointeach", "lat": 56.748477, "long": -5.796131}, {"place23nm": "A' Phairce Dhubh", "lat": 57.237975, "long": -5.90075}, {"place23nm": "A'Chorpaich", "lat": 56.843892, "long": -5.124641}, {"place23nm": "Aaron's Hill", "lat": 51.182911, "long": -0.630956}, {"place23nm": "Ab Kettleby", "lat": 52.800094, "long": -0.927998}, {"place23nm": "Ab Kettleby", "lat": 52.803522, "long": -0.923286}, {"place23nm": "Ab Lench", "lat": 52.163581, "long": -1.980942}, {"place23nm": "Abaty Cwm-hir", "lat": 52.331057, "long": -3.389885}, {"place23nm": "Abbas Combe", "lat": 51.002824, "long": -2.418247}, {"place23nm": "Abbas and Templecombe", "lat": 51.002126, "long": -2.412269}, {"place23nm": "Abbas, Compton", "lat": 50.965682, "long": -2.181791}, {"place23nm": "Abbas, Itchen", "lat": 51.092047, "long": -1.241713}, {"place23nm": "Abberley", "lat": 52.30587, "long": -2.375218}, {"place23nm": "Abberley", "lat": 52.30523, "long": -2.375741}, {"place23nm": "Abberley", "lat": 52.302715, "long": -2.391705}, {"place23nm": "Abberley", "lat": 52.317715, "long": -2.368027}, {"place23nm": "Abberton", "lat": 51.834407, "long": 0.910686}, {"place23nm": "Abberton", "lat": 52.179558, "long": -2.008167}, {"place23nm": "Abberton", "lat": 51.834307, "long": 0.897266}, {"place23nm": "Abberton", "lat": 52.177032, "long": -2.009219}, {"place23nm": "Abberton", "lat": 52.166172, "long": -2.001439}, {"place23nm": "Abberwick", "lat": 55.412472, "long": -1.799709}, {"place23nm": "Abbess Beauchamp and Berners Roding", "lat": 51.769936, "long": 0.28881}, {"place23nm": "Abbess Beauchamp and Berners Roding", "lat": 51.769673, "long": 0.317394}, {"place23nm": "Abbess End", "lat": 51.777602, "long": 0.276122}, {"place23nm": "Abbess Roding", "lat": 51.778214, "long": 0.277022}, {"place23nm": "Abbey Cowper", "lat": 54.844849, "long": -3.318195}, {"place23nm": "Abbey Cwmhir", "lat": 52.32841, "long": -3.370122}, {"place23nm": "Abbey Dore", "lat": 51.969467, "long": -2.896075}, {"place23nm": "Abbey Dore", "lat": 51.990988, "long": -2.884664}, {"place23nm": "Abbey ED", "lat": 52.20962, "long": 0.160494}, {"place23nm": "Abbey ED", "lat": 51.879644, "long": 0.914757}, {"place23nm": "Abbey ED", "lat": 51.84362, "long": -2.202993}, {"place23nm": "Abbey End", "lat": 52.344131, "long": -1.580419}, {"place23nm": "Abbey Fields", "lat": 52.344912, "long": -1.584963}, {"place23nm": "Abbey Gardens", "lat": 51.670904, "long": -1.277494}, {"place23nm": "Abbey Green", "lat": 53.117751, "long": -2.032827}, {"place23nm": "Abbey Hey", "lat": 53.464706, "long": -2.156611}, {"place23nm": "Abbey Hill", "lat": 50.956762, "long": -3.022225}, {"place23nm": "Abbey Hill", "lat": 52.043007, "long": -0.80983}, {"place23nm": "Abbey Hill", "lat": 53.101576, "long": -1.225502}, {"place23nm": "Abbey House", "lat": 54.843983, "long": -3.273005}, {"place23nm": "Abbey Hulton", "lat": 53.035152, "long": -2.140881}, {"place23nm": "Abbey Hulton", "lat": 53.040569, "long": -2.143777}, {"place23nm": "Abbey Hulton", "lat": 53.034232, "long": -2.136136}, {"place23nm": "Abbey Meads", "lat": 51.600846, "long": -1.796406}, {"place23nm": "Abbey Mills", "lat": 55.167532, "long": -1.713971}, {"place23nm": "Abbey Park", "lat": 52.645279, "long": -1.13652}, {"place23nm": "Abbey Parks", "lat": 56.069883, "long": -3.461584}, {"place23nm": "Abbey Road", "lat": 51.532843, "long": -0.178763}, {"place23nm": "Abbey St Bathans", "lat": 55.849333, "long": -2.381043}, {"place23nm": "Abbey St Bathans", "lat": 55.850046, "long": -2.379868}, {"place23nm": "Abbey Stanger", "lat": 54.619508, "long": -3.337228}, {"place23nm": "Abbey Town", "lat": 54.844301, "long": -3.285474}, {"place23nm": "Abbey Village", "lat": 53.700081, "long": -2.545933}, {"place23nm": "Abbey Wood", "lat": 51.490835, "long": 0.108057}, {"place23nm": "Abbey Wood", "lat": 51.488274, "long": 0.113442}, {"place23nm": "Abbey", "lat": 54.637322, "long": -3.351757}, {"place23nm": "Abbey", "lat": 50.888116, "long": -3.221895}, {"place23nm": "Abbey", "lat": 54.487761, "long": -0.606977}, {"place23nm": "Abbey", "lat": 51.53603, "long": 0.078479}, {"place23nm": "Abbey", "lat": 51.622128, "long": -0.761804}, {"place23nm": "Abbey", "lat": 51.725037, "long": -2.027828}, {"place23nm": "Abbey", "lat": 54.920901, "long": -3.676746}, {"place23nm": "Abbey", "lat": 52.656923, "long": -1.140386}, {"place23nm": "Abbey", "lat": 53.233983, "long": -0.512295}, {"place23nm": "Abbey", "lat": 51.41417, "long": -0.19181}, {"place23nm": "Abbey", "lat": 52.525019, "long": -1.473714}, {"place23nm": "Abbey", "lat": 52.31543, "long": -1.931837}, {"place23nm": "Abbey", "lat": 52.925532, "long": -1.119908}, {"place23nm": "Abbey", "lat": 52.475067, "long": -1.978264}, {"place23nm": "Abbey", "lat": 52.706651, "long": -2.728799}, {"place23nm": "Abbey", "lat": 51.31718, "long": 0.902471}, {"place23nm": "Abbey", "lat": 52.209917, "long": 0.159513}, {"place23nm": "Abbey", "lat": 52.217296, "long": 0.174379}, {"place23nm": "Abbey", "lat": 52.915818, "long": -1.500435}, {"place23nm": "Abbey", "lat": 52.916835, "long": -1.481759}, {"place23nm": "Abbey", "lat": 51.456753, "long": -0.987274}, {"place23nm": "Abbey", "lat": 51.455427, "long": -0.975458}, {"place23nm": "Abbeycwmhir", "lat": 52.331057, "long": -3.389885}, {"place23nm": "Abbeydale Park", "lat": 53.323555, "long": -1.525101}, {"place23nm": "Abbeydale", "lat": 53.335638, "long": -1.512353}, {"place23nm": "Abbeydale", "lat": 51.84233, "long": -2.210666}, {"place23nm": "Abbeygate", "lat": 52.242389, "long": 0.713916}, {"place23nm": "Abbeygreen", "lat": 52.885199, "long": -2.731121}, {"place23nm": "Abbeyhill", "lat": 55.95738, "long": -3.169707}, {"place23nm": "Abbeylands", "lat": 55.424529, "long": -1.71686}, {"place23nm": "Abbeymead", "lat": 51.845313, "long": -2.196468}, {"place23nm": "Abbeystead", "lat": 53.983703, "long": -2.670171}, {"place23nm": "Abbeytown", "lat": 54.845006, "long": -3.293579}, {"place23nm": "Abbot's Mead", "lat": 53.206739, "long": -2.901495}, {"place23nm": "Abbot's Salford", "lat": 52.149696, "long": -1.901003}, {"place23nm": "Abbotrule", "lat": 55.409361, "long": -2.618925}, {"place23nm": "Abbots Bickington", "lat": 50.897447, "long": -4.299387}, {"place23nm": "Abbots Bickington", "lat": 50.895469, "long": -4.308462}, {"place23nm": "Abbots Bromley", "lat": 52.81901, "long": -1.880134}, {"place23nm": "Abbots Bromley", "lat": 52.81721, "long": -1.877246}, {"place23nm": "Abbots Bromley", "lat": 52.825187, "long": -1.872074}, {"place23nm": "Abbots Bromley", "lat": 52.852436, "long": -1.850922}, {"place23nm": "Abbots Haye", "lat": 52.994961, "long": -1.970904}, {"place23nm": "Abbots Langley & Bedmond", "lat": 51.707333, "long": -0.417698}, {"place23nm": "Abbots Langley & Bedmond", "lat": 51.723213, "long": -0.412424}, {"place23nm": "Abbots Langley ED", "lat": 51.70815, "long": -0.43032}, {"place23nm": "Abbots Langley ED", "lat": 51.699439, "long": -0.422488}, {"place23nm": "Abbots Langley and Kings Langley", "lat": 51.714172, "long": -0.454575}, {"place23nm": "Abbots Langley and Kings Langley", "lat": 51.705482, "long": -0.414463}, {"place23nm": "Abbots Langley", "lat": 51.705775, "long": -0.417521}, {"place23nm": "Abbots Langley", "lat": 51.72194, "long": -0.428018}, {"place23nm": "Abbots Langley", "lat": 51.698033, "long": -0.421568}, {"place23nm": "Abbots Leigh", "lat": 51.458248, "long": -2.665994}, {"place23nm": "Abbots Leigh", "lat": 51.46071, "long": -2.666404}, {"place23nm": "Abbots Leigh", "lat": 51.463986, "long": -2.661111}, {"place23nm": "Abbots Morton", "lat": 52.194, "long": -1.960361}, {"place23nm": "Abbots Morton", "lat": 52.189151, "long": -1.952451}, {"place23nm": "Abbots Reading", "lat": 54.256617, "long": -3.010763}, {"place23nm": "Abbots Ripton", "lat": 52.385896, "long": -0.191664}, {"place23nm": "Abbots Ripton", "lat": 52.387215, "long": -0.193271}, {"place23nm": "Abbots Ripton", "lat": 52.388902, "long": -0.191277}, {"place23nm": "Abbots Salford", "lat": 52.149696, "long": -1.901003}, {"place23nm": "Abbots Wood House", "lat": 54.138367, "long": -3.194009}, {"place23nm": "Abbots Worthy", "lat": 51.089671, "long": -1.293156}, {"place23nm": "Abbots, Charlton", "lat": 51.917675, "long": -1.951237}, {"place23nm": "Abbots, Sulhamstead", "lat": 51.40603, "long": -1.075506}, {"place23nm": "Abbotsbury", "lat": 50.66549, "long": -2.598109}, {"place23nm": "Abbotsbury", "lat": 50.532102, "long": -3.611289}, {"place23nm": "Abbotsbury", "lat": 50.658665, "long": -2.590864}, {"place23nm": "Abbotsford", "lat": 50.972942, "long": -0.144429}, {"place23nm": "Abbotsham", "lat": 51.016126, "long": -4.247407}, {"place23nm": "Abbotsham", "lat": 51.022045, "long": -4.255751}, {"place23nm": "Abbotside", "lat": 51.61507, "long": -2.451282}, {"place23nm": "Abbotskerswell", "lat": 50.508504, "long": -3.615042}, {"place23nm": "Abbotskerswell", "lat": 50.507655, "long": -3.613363}, {"place23nm": "Abbotskerswell", "lat": 50.504596, "long": -3.612808}, {"place23nm": "Abbotsleigh", "lat": 50.326882, "long": -3.685829}, {"place23nm": "Abbotsley", "lat": 52.19306, "long": -0.203214}, {"place23nm": "Abbotsley", "lat": 52.193244, "long": -0.202914}, {"place23nm": "Abbotsley", "lat": 52.208799, "long": -0.215869}, {"place23nm": "Abbotsley", "lat": 52.22444, "long": -0.187321}, {"place23nm": "Abbotsmead", "lat": 54.116069, "long": -3.20377}, {"place23nm": "Abbotstone", "lat": 51.107472, "long": -1.195037}, {"place23nm": "Abbotswood", "lat": 51.251992, "long": -0.559163}, {"place23nm": "Abbotswood", "lat": 54.13844, "long": -3.194777}, {"place23nm": "Abbotswood", "lat": 52.141895, "long": -2.160685}, {"place23nm": "Abbott Street", "lat": 50.806834, "long": -2.021087}, {"place23nm": "Abbott's Mead", "lat": 53.203946, "long": -2.903473}, {"place23nm": "Abbotts Ann", "lat": 51.188096, "long": -1.530425}, {"place23nm": "Abbotts Ann", "lat": 51.191121, "long": -1.52915}, {"place23nm": "Abbotts Ann", "lat": 51.183616, "long": -1.536666}, {"place23nm": "Abbotts Barton", "lat": 51.077609, "long": -1.306188}, {"place23nm": "Abbotts Wootton", "lat": 50.764208, "long": -2.880901}, {"place23nm": "Abbotts, Manningford", "lat": 51.328839, "long": -1.796997}, {"place23nm": "Abbotts, Thorpe", "lat": 52.369532, "long": 1.224374}, {"place23nm": "Abby Village", "lat": 53.700415, "long": -2.543726}, {"place23nm": "Abby", "lat": 52.581323, "long": 0.452304}, {"place23nm": "Abcott", "lat": 52.402377, "long": -2.896997}, {"place23nm": "Abdie", "lat": 56.336343, "long": -3.199894}, {"place23nm": "Abdon and Heath", "lat": 52.483374, "long": -2.640726}, {"place23nm": "Abdy", "lat": 53.484106, "long": -1.354986}, {"place23nm": "Abenbury", "lat": 53.040849, "long": -2.944742}, {"place23nm": "Abenhall", "lat": 51.85423, "long": -2.476904}, {"place23nm": "Aber Cegir", "lat": 52.601023, "long": -3.764412}, {"place23nm": "Aber Clydach", "lat": 51.88407, "long": -3.299571}, {"place23nm": "Aber Clydach", "lat": 51.6929, "long": -3.900766}, {"place23nm": "Aber Halt", "lat": 51.57568, "long": -3.230291}, {"place23nm": "Aber Pwll", "lat": 53.190743, "long": -4.195093}, {"place23nm": "Aber Rhaeadr", "lat": 52.813524, "long": -3.292993}, {"place23nm": "Aber Valley", "lat": 51.602977, "long": -3.271864}, {"place23nm": "Aber Valley", "lat": 51.602977, "long": -3.271864}, {"place23nm": "Aber-Arad", "lat": 52.035044, "long": -4.459964}, {"place23nm": "Aber-Clydach", "lat": 51.6929, "long": -3.900766}, {"place23nm": "Aber-Cywarch", "lat": 52.727183, "long": -3.676353}, {"place23nm": "Aber-Eiddy", "lat": 51.936927, "long": -5.203776}, {"place23nm": "Aber-Garwed", "lat": 51.70711, "long": -3.713637}, {"place23nm": "Aber-Giar", "lat": 52.045954, "long": -4.184776}, {"place23nm": "Aber-Gi\u00e2r", "lat": 52.045954, "long": -4.184776}, {"place23nm": "Aber-Magwr", "lat": 52.345495, "long": -3.958438}, {"place23nm": "Aber-Meurig", "lat": 52.185638, "long": -4.098722}, {"place23nm": "Aber-Nant", "lat": 51.719146, "long": -3.432512}, {"place23nm": "Aber-Rhaeadr", "lat": 52.813524, "long": -3.292993}, {"place23nm": "Aber-Tafol", "lat": 52.553583, "long": -3.994022}, {"place23nm": "Aber-banc", "lat": 52.050432, "long": -4.398381}, {"place23nm": "Aber-big", "lat": 51.713176, "long": -3.149196}, {"place23nm": "Aber-big", "lat": 51.708682, "long": -3.149082}, {"place23nm": "Aber-craf and Ystradgynlais", "lat": 51.780396, "long": -3.740535}, {"place23nm": "Aber-craf and Ystradgynlais", "lat": 51.824353, "long": -3.739037}, {"place23nm": "Aber-fan", "lat": 51.690383, "long": -3.348127}, {"place23nm": "Aber-ffrwd", "lat": 52.391292, "long": -3.929308}, {"place23nm": "Aber-miwl", "lat": 52.544363, "long": -3.267372}, {"place23nm": "Aber-oer", "lat": 53.03389, "long": -3.063951}, {"place23nm": "Aber", "lat": 53.247448, "long": -4.043951}, {"place23nm": "Aber", "lat": 53.212496, "long": -3.984731}, {"place23nm": "Aber", "lat": 52.112669, "long": -4.223675}, {"place23nm": "Aber", "lat": 51.883769, "long": -3.301582}, {"place23nm": "Aberaeron and Aberarth", "lat": 52.239986, "long": -4.248549}, {"place23nm": "Aberaeron", "lat": 52.241422, "long": -4.264691}, {"place23nm": "Aberaeron", "lat": 52.240363, "long": -4.258016}, {"place23nm": "Aberaeron", "lat": 52.242272, "long": -4.25927}, {"place23nm": "Aberaman North", "lat": 51.702591, "long": -3.435636}, {"place23nm": "Aberaman South", "lat": 51.684856, "long": -3.438778}, {"place23nm": "Aberaman", "lat": 51.68858, "long": -3.440878}, {"place23nm": "Aberangell", "lat": 52.674011, "long": -3.710406}, {"place23nm": "Aberargie", "lat": 56.32689, "long": -3.357529}, {"place23nm": "Aberarth", "lat": 52.250119, "long": -4.228214}, {"place23nm": "Aberavon", "lat": 51.597008, "long": -3.793132}, {"place23nm": "Aberavon", "lat": 51.593311, "long": -3.80201}, {"place23nm": "Aberavon", "lat": 51.602552, "long": -3.802174}, {"place23nm": "Aberbaiden Farm", "lat": 51.826788, "long": -3.077789}, {"place23nm": "Aberbargod", "lat": 51.692381, "long": -3.222891}, {"place23nm": "Aberbargoed and Bargoed", "lat": 51.689279, "long": -3.23836}, {"place23nm": "Aberbargoed and Bargoed", "lat": 51.692548, "long": -3.217267}, {"place23nm": "Aberbargoed", "lat": 51.694746, "long": -3.222882}, {"place23nm": "Aberbargoed", "lat": 51.692381, "long": -3.222891}, {"place23nm": "Aberbechan", "lat": 52.532164, "long": -3.264809}, {"place23nm": "Aberbeeg", "lat": 51.713176, "long": -3.149196}, {"place23nm": "Aberbeeg", "lat": 51.708682, "long": -3.149082}, {"place23nm": "Aberbran", "lat": 51.95513, "long": -3.480042}, {"place23nm": "Abercanaid", "lat": 51.723059, "long": -3.368354}, {"place23nm": "Abercarn", "lat": 51.63466, "long": -3.128066}, {"place23nm": "Abercarn", "lat": 51.64921, "long": -3.118511}, {"place23nm": "Abercarn", "lat": 51.647345, "long": -3.134755}, {"place23nm": "Abercarn", "lat": 51.64921, "long": -3.118511}, {"place23nm": "Abercastle", "lat": 51.958614, "long": -5.12307}, {"place23nm": "Abercegir", "lat": 52.601023, "long": -3.764412}, {"place23nm": "Aberchalder", "lat": 57.093371, "long": -4.743705}, {"place23nm": "Aberchirder", "lat": 57.562446, "long": -2.624694}, {"place23nm": "Aberchirder", "lat": 57.560269, "long": -2.628785}, {"place23nm": "Aberchwiler", "lat": 53.213557, "long": -3.354039}, {"place23nm": "Abercorn", "lat": 55.994144, "long": -3.472803}, {"place23nm": "Abercorn", "lat": 55.992749, "long": -3.424027}, {"place23nm": "Abercorn", "lat": 55.971131, "long": -3.481798}, {"place23nm": "Abercorn", "lat": 55.984937, "long": -3.482214}, {"place23nm": "Abercorris", "lat": 52.654444, "long": -3.84019}, {"place23nm": "Abercowin, Llandilo", "lat": 51.791327, "long": -4.451751}, {"place23nm": "Abercraf", "lat": 51.802169, "long": -3.712743}, {"place23nm": "Abercrave", "lat": 51.800964, "long": -3.714626}, {"place23nm": "Abercregan", "lat": 51.656294, "long": -3.663635}, {"place23nm": "Abercregen", "lat": 51.655811, "long": -3.660234}, {"place23nm": "Abercrombie", "lat": 56.215728, "long": -2.778989}, {"place23nm": "Abercwmboi", "lat": 51.688148, "long": -3.415764}, {"place23nm": "Abercych", "lat": 52.031169, "long": -4.548279}, {"place23nm": "Abercych", "lat": 52.03942, "long": -4.556404}, {"place23nm": "Abercych", "lat": 52.036949, "long": -4.556307}, {"place23nm": "Abercynffig", "lat": 51.540223, "long": -3.5968}, {"place23nm": "Abercynon", "lat": 51.655147, "long": -3.339188}, {"place23nm": "Abercynon", "lat": 51.655366, "long": -3.31913}, {"place23nm": "Abercynon", "lat": 51.646565, "long": -3.334802}, {"place23nm": "Abercynon", "lat": 51.646115, "long": -3.328501}, {"place23nm": "Abercynon", "lat": 51.646565, "long": -3.334802}, {"place23nm": "Abercynon", "lat": 51.654871, "long": -3.327095}, {"place23nm": "Aberdalgie", "lat": 56.365509, "long": -3.492617}, {"place23nm": "Aberdalgie", "lat": 56.372853, "long": -3.507169}, {"place23nm": "Aberdalgie", "lat": 56.388174, "long": -3.481015}, {"place23nm": "Aberdare East", "lat": 51.721722, "long": -3.431479}, {"place23nm": "Aberdare East", "lat": 51.721722, "long": -3.431479}, {"place23nm": "Aberdare West and Llwydcoed", "lat": 51.711266, "long": -3.474252}, {"place23nm": "Aberdare West and Llwydcoed", "lat": 51.751806, "long": -3.465924}, {"place23nm": "Aberdare West", "lat": 51.711053, "long": -3.483972}, {"place23nm": "Aberdare", "lat": 51.719591, "long": -3.467849}, {"place23nm": "Aberdaron", "lat": 52.820849, "long": -4.687357}, {"place23nm": "Aberdaron", "lat": 52.810602, "long": -4.707367}, {"place23nm": "Aberdaugleddau", "lat": 51.71309, "long": -5.036013}, {"place23nm": "Aberdeen City", "lat": 57.209986, "long": -2.227345}, {"place23nm": "Aberdeen City", "lat": 57.127954, "long": -2.188622}, {"place23nm": "Aberdeen City", "lat": 57.165694, "long": -2.161233}, {"place23nm": "Aberdeen", "lat": 57.149677, "long": -2.130837}, {"place23nm": "Aberdeen", "lat": 57.087707, "long": -2.106977}, {"place23nm": "Aberdeen", "lat": 57.149835, "long": -2.093767}, {"place23nm": "Aberdeen", "lat": 53.596735, "long": -2.608878}, {"place23nm": "Aberdeen", "lat": 57.132313, "long": -2.146965}, {"place23nm": "Aberdeen", "lat": 57.16015, "long": -2.131485}, {"place23nm": "Aberdeen", "lat": 57.175143, "long": -2.122492}, {"place23nm": "Aberdeen", "lat": 57.117393, "long": -2.137874}, {"place23nm": "Aberdeenshire", "lat": 57.048355, "long": -3.275449}, {"place23nm": "Aberdeenshire", "lat": 57.373179, "long": -2.736023}, {"place23nm": "Aberdeenshire", "lat": 57.035085, "long": -2.528392}, {"place23nm": "Aberdeenshire", "lat": 56.776315, "long": -2.51624}, {"place23nm": "Aberdeenshire", "lat": 57.549228, "long": -2.267434}, {"place23nm": "Aberdeenshire", "lat": 57.09438, "long": -2.118713}, {"place23nm": "Aberdeenshire", "lat": 0.0, "long": 0.0}, {"place23nm": "Aberdeenshire", "lat": 0.0, "long": 0.0}, {"place23nm": "Aberdesach", "lat": 53.035656, "long": -4.350087}, {"place23nm": "Aberdour (Aberdeenshire)", "lat": 57.643793, "long": -2.227257}, {"place23nm": "Aberdour (Fife)", "lat": 56.085921, "long": -3.346307}, {"place23nm": "Aberdour (Fife)", "lat": 56.071681, "long": -3.307641}, {"place23nm": "Aberdour", "lat": 56.056573, "long": -3.293497}, {"place23nm": "Aberdour", "lat": 56.053717, "long": -3.301847}, {"place23nm": "Aberdovey", "lat": 52.54577, "long": -4.044064}, {"place23nm": "Aberdovey", "lat": 52.541146, "long": -4.068535}, {"place23nm": "Aberdovey", "lat": 52.548486, "long": -4.0236}, {"place23nm": "Aberdovey", "lat": 52.543967, "long": -4.044349}, {"place23nm": "Aberdulais", "lat": 51.682471, "long": -3.774184}, {"place23nm": "Aberdulais", "lat": 51.6947, "long": -3.762914}, {"place23nm": "Aberdyfi", "lat": 52.543967, "long": -4.044349}, {"place23nm": "Aberdyfi", "lat": 52.541146, "long": -4.068535}, {"place23nm": "Aberdyfi", "lat": 52.601174, "long": -3.91275}, {"place23nm": "Aberedw", "lat": 52.133119, "long": -3.312739}, {"place23nm": "Aberedw", "lat": 52.11717, "long": -3.346929}]